AirportCode,AirportName,City,Country,Latitude,Longitude
CMB,Bandaranaike Intl,Colombo,Sri Lanka,7.1808,79.8841
DXB,Dubai Intl,Dubai,UAE,25.2532,55.3657
SIN,Changi Intl,Singapore,Singapore,1.3644,103.9915
BKK,Suvarnabhumi Intl,Bangkok,Thailand,13.6900,100.7501
LHR,Heathrow Intl,London,UK,51.4700,-0.4543
